[
  {
    "productCode": "259640P7",
    "title": "Million Dollar Highway Self-Guided Driving Audio Tour",
    "address": "Self-guided tour - starts from Ouray, CO",
    "city": "Ouray",
    "state": "CO",
    "zip": "81427",
    "location": "Million Dollar Highway (US-550), Ouray to Silverton",
    "latitude": 38.0228,
    "longitude": -107.6714,
    "meetingPoint": "Self-guided - start from Ouray Visitor Center, 1230 Main St, Ouray, CO 81427"
  },
  {
    "productCode": "259640P6",
    "title": "Ultimate Colorado Bundle: Self-Guided Driving & Walking Tours",
    "address": "Self-guided tour bundle",
    "city": "Multiple Locations",
    "state": "CO",
    "zip": "81435",
    "location": "Various locations in Colorado",
    "latitude": 38.0294,
    "longitude": -107.8108,
    "meetingPoint": "Self-guided - download and start from your location"
  },
  {
    "productCode": "22803P7",
    "title": "Telluride Morning Half Day Rafting Trip - San Miguel River",
    "address": "121 W Colorado Ave",
    "city": "Telluride",
    "state": "CO",
    "zip": "81435",
    "location": "Telluride Outside - Main Office",
    "latitude": 38.0294,
    "longitude": -107.8108,
    "meetingPoint": "Telluride Outside, 121 W Colorado Ave, Telluride, CO 81435"
  },
  {
    "productCode": "22803P28",
    "title": "Telluride Afternoon Half Day Rafting Trip - San Miguel River",
    "address": "121 W Colorado Ave",
    "city": "Telluride",
    "state": "CO",
    "zip": "81435",
    "location": "Telluride Outside - Main Office",
    "latitude": 38.0294,
    "longitude": -107.8108,
    "meetingPoint": "Telluride Outside, 121 W Colorado Ave, Telluride, CO 81435"
  },
  {
    "productCode": "128730P3",
    "title": "Half-Day Ice Climbing - Telluride",
    "address": "610 Main St",
    "city": "Ouray",
    "state": "CO",
    "zip": "81427",
    "location": "Mountain Trip - Ouray Office",
    "latitude": 38.0228,
    "longitude": -107.6714,
    "meetingPoint": "Mountain Trip, 610 Main St, Ouray, CO 81427 (Telluride pickups available)"
  },
  {
    "productCode": "22803P5",
    "title": "Telluride 1 Day Rafting Trip with Lunch - San Miguel River",
    "address": "121 W Colorado Ave",
    "city": "Telluride",
    "state": "CO",
    "zip": "81435",
    "location": "Telluride Outside - Main Office",
    "latitude": 38.0294,
    "longitude": -107.8108,
    "meetingPoint": "Telluride Outside, 121 W Colorado Ave, Telluride, CO 81435"
  },
  {
    "productCode": "22803P39",
    "title": "Telluride Half Day Jeep Tours",
    "address": "150 W Colorado Ave",
    "city": "Telluride",
    "state": "CO",
    "zip": "81435",
    "location": "Telluride Adventures - Main Office",
    "latitude": 38.0294,
    "longitude": -107.8108,
    "meetingPoint": "Telluride Adventures, 150 W Colorado Ave, Telluride, CO 81435"
  },
  {
    "productCode": "128730P4",
    "title": "Half-Day Ice Climbing - Ouray Ice Park",
    "address": "610 Main St",
    "city": "Ouray",
    "state": "CO",
    "zip": "81427",
    "location": "Mountain Trip - Ouray Office",
    "latitude": 38.0228,
    "longitude": -107.6714,
    "meetingPoint": "Mountain Trip, 610 Main St, Ouray, CO 81427"
  },
  {
    "productCode": "128730P5",
    "title": "Full-Day Ice Climbing - Ouray Ice Park",
    "address": "610 Main St",
    "city": "Ouray",
    "state": "CO",
    "zip": "81427",
    "location": "Mountain Trip - Ouray Office",
    "latitude": 38.0228,
    "longitude": -107.6714,
    "meetingPoint": "Mountain Trip, 610 Main St, Ouray, CO 81427"
  },
  {
    "productCode": "259640P25",
    "title": "Black Canyon of the Gunnison NP Self-Guided Driving Audio Tour",
    "address": "Self-guided tour",
    "city": "Montrose",
    "state": "CO",
    "zip": "81401",
    "location": "Black Canyon of the Gunnison National Park",
    "latitude": 38.5758,
    "longitude": -107.7242,
    "meetingPoint": "Self-guided - start from Black Canyon Visitor Center, 9800 Hwy 347, Montrose, CO 81401"
  },
  {
    "productCode": "200006P131",
    "title": "Telluride Tirade Scavenger Hunt",
    "address": "236 W Colorado Ave",
    "city": "Telluride",
    "state": "CO",
    "zip": "81435",
    "location": "Telluride Visitor Center",
    "latitude": 38.0294,
    "longitude": -107.8108,
    "meetingPoint": "Telluride Visitor Center, 236 W Colorado Ave, Telluride, CO 81435"
  },
  {
    "productCode": "102020P169",
    "title": "Black Canyon of the Gunnison Self-Guided Audio Driving Tour",
    "address": "Self-guided tour",
    "city": "Montrose",
    "state": "CO",
    "zip": "81401",
    "location": "Black Canyon of the Gunnison National Park",
    "latitude": 38.5758,
    "longitude": -107.7242,
    "meetingPoint": "Self-guided - start from Black Canyon Visitor Center, 9800 Hwy 347, Montrose, CO 81401"
  },
  {
    "productCode": "22803P50",
    "title": "Telluride Paddleboard and Kayak Tours",
    "address": "121 W Colorado Ave",
    "city": "Telluride",
    "state": "CO",
    "zip": "81435",
    "location": "Telluride Outside - Main Office",
    "latitude": 38.0294,
    "longitude": -107.8108,
    "meetingPoint": "Telluride Outside, 121 W Colorado Ave, Telluride, CO 81435"
  },
  {
    "productCode": "128730P20",
    "title": "Full-Day Rock Climbing - Ouray",
    "address": "610 Main St",
    "city": "Ouray",
    "state": "CO",
    "zip": "81427",
    "location": "Mountain Trip - Ouray Office",
    "latitude": 38.0228,
    "longitude": -107.6714,
    "meetingPoint": "Mountain Trip, 610 Main St, Ouray, CO 81427"
  },
  {
    "productCode": "128730P9",
    "title": "Guided Backcountry Skiing - Telluride",
    "address": "610 Main St",
    "city": "Ouray",
    "state": "CO",
    "zip": "81427",
    "location": "Mountain Trip - Ouray Office",
    "latitude": 38.0228,
    "longitude": -107.6714,
    "meetingPoint": "Mountain Trip, 610 Main St, Ouray, CO 81427 (Telluride pickups available)"
  },
  {
    "productCode": "128730P18",
    "title": "Half-Day Rock Climbing - Ouray",
    "address": "610 Main St",
    "city": "Ouray",
    "state": "CO",
    "zip": "81427",
    "location": "Mountain Trip - Ouray Office",
    "latitude": 38.0228,
    "longitude": -107.6714,
    "meetingPoint": "Mountain Trip, 610 Main St, Ouray, CO 81427"
  },
  {
    "productCode": "353772P1",
    "title": "Stand Up Paddle Board Rentals",
    "address": "565 Mountain Village Blvd",
    "city": "Mountain Village",
    "state": "CO",
    "zip": "81435",
    "location": "Mountain Village Gondola Plaza",
    "latitude": 37.9375,
    "longitude": -107.8564,
    "meetingPoint": "Mountain Village Gondola Plaza, 565 Mountain Village Blvd, Mountain Village, CO 81435"
  },
  {
    "productCode": "128730P14",
    "title": "Half-Day Rock Climbing - Telluride",
    "address": "610 Main St",
    "city": "Ouray",
    "state": "CO",
    "zip": "81427",
    "location": "Mountain Trip - Ouray Office",
    "latitude": 38.0228,
    "longitude": -107.6714,
    "meetingPoint": "Mountain Trip, 610 Main St, Ouray, CO 81427 (Telluride pickups available)"
  },
  {
    "productCode": "128730P8",
    "title": "Backcountry Ice Climbing - Ouray & Telluride",
    "address": "610 Main St",
    "city": "Ouray",
    "state": "CO",
    "zip": "81427",
    "location": "Mountain Trip - Ouray Office",
    "latitude": 38.0228,
    "longitude": -107.6714,
    "meetingPoint": "Mountain Trip, 610 Main St, Ouray, CO 81427 (Telluride pickups available)"
  },
  {
    "productCode": "16649P9",
    "title": "Telluride ~ \"Half-Day\" Rafting Lower San Miguel River",
    "address": "121 W Colorado Ave",
    "city": "Telluride",
    "state": "CO",
    "zip": "81435",
    "location": "Telluride Outside - Main Office",
    "latitude": 38.0294,
    "longitude": -107.8108,
    "meetingPoint": "Telluride Outside, 121 W Colorado Ave, Telluride, CO 81435"
  },
  {
    "productCode": "128730P21",
    "title": "One-Day Peak Ascents - Telluride & Ouray",
    "address": "610 Main St",
    "city": "Ouray",
    "state": "CO",
    "zip": "81427",
    "location": "Mountain Trip - Ouray Office",
    "latitude": 38.0228,
    "longitude": -107.6714,
    "meetingPoint": "Mountain Trip, 610 Main St, Ouray, CO 81427 (Telluride pickups available)"
  },
  {
    "productCode": "128730P22",
    "title": "Guided Backcountry Skiing - Ouray",
    "address": "610 Main St",
    "city": "Ouray",
    "state": "CO",
    "zip": "81427",
    "location": "Mountain Trip - Ouray Office",
    "latitude": 38.0228,
    "longitude": -107.6714,
    "meetingPoint": "Mountain Trip, 610 Main St, Ouray, CO 81427"
  }
]

